Latitude,Longitude,Title,Description
43.6045,1.4438,"Place du Capitole","Le célèbre place du Capitole de Toulouse"
43.6083195,1.4396152,"Basilique Saint-Sernin","La basilique Saint-Sernin, un des plus grands monuments romans de France"
43.6007988,1.4444903,"Musée des Augustins","Le Musée des Augustins, un musée d'art de Toulouse"
43.6008178,1.4379242,"Jardin des Plantes","Le Jardin des Plantes, un jardin botanique de Toulouse"
43.6008482,1.4379242,"Palais de Justice","Le Palais de Justice de Toulouse"
